{"shopsList":[{"nom":"Micromania INNOCENTS","addresse":"2, Rue Pierre Lescot 75001 PARIS","tel":"01.42.36.25.42","lat":"48.86171262","lng":"2.34887501","isChecked":false},{"nom":"Micromania MONTPARNASSE Rue de Rennes","addresse":"126, Rue de Rennes 75006 PARIS","tel":"01.45.49.07.07","lat":"48.84664073","lng":"2.32723435","isChecked":false},{"nom":"Micromania PARIS SAINT ANTOINE","addresse":"3 bis rue du Faubourg St Antoine 75011 PARIS","tel":"0143416261","lat":"48.85322130","lng":"2.37059770","isChecked":false},{"nom":"Micromania CAUMARTIN","addresse":"64 rue Caumartin 75009 PARIS","tel":"0145963536","lat":"48.87559845","lng":"2.32923157","isChecked":false},{"nom":"Micromania GARE SAINT LAZARE","addresse":"Gare Saint Lazare, 13 rue d'Amsterdam 75008 PARIS","tel":"0142932158","lat":"48.87674345","lng":"2.32688578","isChecked":false},{"nom":"Micromania PARIS GENERAL LECLERC","addresse":"24 Avenue du Général Leclerc 75014 PARIS","tel":"0145433184","lat":"48.83202200","lng":"2.33023440","isChecked":false},{"nom":"Micromania ITALIE 2","addresse":"Centre commercial ITALIE 2, 30, Avenue D'Italie - boite 1031 75013 PARIS","tel":"01.45.89.70.43","lat":"48.82985964","lng":"2.35687202","isChecked":false},{"nom":"Micromania TERNES","addresse":"1, avenue Niel 75017 PARIS","tel":"0158050640","lat":"48.87893454","lng":"2.29504493","isChecked":false},{"nom":"Micromania PARIS VAUGIRARD","addresse":"365, Rue de Vaugirard 75015 PARIS","tel":"0153688688","lat":"48.83649680","lng":"2.29524260","isChecked":false},{"nom":"Micromania BEAUGRENELLE","addresse":"Centre commercial BEAUGRENELLE, Rue de Linois 75015 PARIS","tel":"0145775205","lat":"48.84833687","lng":"2.28397166","isChecked":false},{"nom":"Micromania PARIS VICTOR HUGO","addresse":"137 Avenue Victor Hugo 75116 PARIS","tel":"0147271310","lat":"48.86736770","lng":"2.28019860","isChecked":false},{"nom":"Micromania LEVALLOIS-PERRET","addresse":"Centre Commercial So Ouest Niveau -1, Rue d'Alsace 92300 LEVALLOIS PERRET","tel":"01 55 90 94 79","lat":"48.89224000","lng":"2.29637700","isChecked":false},{"nom":"Micromania BEL EST","addresse":"Centre commercial BEL EST, 26 av du Général de Gaulle 93170 BAGNOLET","tel":"01.41.63.14.17","lat":"48.86544368","lng":"2.41631766","isChecked":false},{"nom":"Micromania BERCY","addresse":"Centre commercial BERCY2, Place de l'Europe - Local 227 94220 CHARENTON LE PONT","tel":"0141793161","lat":"48.82522757","lng":"2.39498191","isChecked":false},{"nom":"Micromania KREMLIN BICETRE","addresse":"Centre commercial OKABE, Avenue de Fontainebleau 94270 LE KREMLIN BICETRE","tel":"0146710282","lat":"48.81105615","lng":"2.36277060","isChecked":false},{"nom":"Micromania ARCUEIL LA VACHE NOIRE","addresse":"Centre commercial La Vache Noire, 1 place de la Vache Noire 94110 ARCUEIL","tel":"0149120182","lat":"48.80978220","lng":"2.32724145","isChecked":false},{"nom":"Micromania IVRY GRAND CIEL","addresse":"Centre commercial IVRY GRAND CIEL, Local N°53 94200 IVRY SUR SEINE","tel":"0145151206","lat":"48.81947433","lng":"2.39718029","isChecked":false},{"nom":"Micromania AUBERVILLIERS","addresse":"CCAL CARREFOUR MILLENAIRE RUE LA GARE, ZAC CANAL PORTE D'AUBERVILLIERS 93300 AUBERVILLIERS","tel":"01 48 33 65 16","lat":"48.91482334","lng":"2.38120163","isChecked":false},{"nom":"Micromania VILLENEUVE LA GARENNE","addresse":"Centre Commercial Qwartz, 20 rue de la Bongarde 92390 VILLENEUVE LA GARENNE","tel":"01 47 33 45 47","lat":"48.92501970","lng":"2.32813290","isChecked":false},{"nom":"Micromania GENNEVILLIERS","addresse":"Centre commercial CARREFOUR, 21-23 RUE LOUIS CALMEL 92230 GENNEVILLIERS","tel":"01.41.21.80.15","lat":"48.92465952","lng":"2.29058917","isChecked":false},{"nom":"Micromania BOULOGNE BILLANCOURT","addresse":"60, Avenue du Général Leclerc, N10 92100 BOULOGNE BILLANCOURT","tel":"01 41 31 08 08","lat":"48.83203720","lng":"2.23781720","isChecked":false},{"nom":"Micromania LA DEFENSE 3 RER ( Niveau RER )","addresse":"Hall RER La Grande Arche, Lot 103506 92800 PUTEAUX","tel":"0147784470","lat":"48.89177159","lng":"2.23934730","isChecked":false},{"nom":"Micromania DRANCY","addresse":"Centre commercial Carrefour Avenir, 60, Rue Saint Stenay 93700 DRANCY","tel":"01 48 35 35 50","lat":"48.91866180","lng":"2.42249414","isChecked":false},{"nom":"Micromania LA DEFENSE 4 TEMPS ( La Rotonde )","addresse":"Centre commercial LES 4 TEMPS, Niveau 2 - Rotondes des Miroirs 92800 PUTEAUX","tel":"0147735323","lat":"48.89141725","lng":"2.23478235","isChecked":false},{"nom":"Micromania LA DEFENSE 2 ( Niveau 0 )","addresse":"Centre commercial 4 TEMPS, 2 Le Parvis de la Défense 92800 PUTEAUX","tel":"01.47.76.36.41","lat":"48.89141725","lng":"2.23478235","isChecked":false},{"nom":"Micromania VILLEJUIF","addresse":"Centre commercial CARREFOUR, 66/67 Avenue de Stalingrad 94800 VILLEJUIF","tel":"01 56 20 13 60","lat":"48.78227544","lng":"2.36856367","isChecked":false},{"nom":"Micromania ROSNY 2","addresse":"Centre commercial ROSNY 2 93110 ROSNY SOUS BOIS","tel":"01.48.54.73.07","lat":"48.88297289","lng":"2.47981652","isChecked":false},{"nom":"Micromania VAL DE FONTENAY","addresse":"Centre commercial VAL DE FONTENAY, Coque 13 94120 FONTENAY SOUS BOIS","tel":"01.53.99.18.45","lat":"48.85365879","lng":"2.48485659","isChecked":false},{"nom":"Micromania BLANC MESNIL","addresse":"Centre commercial Leclerc Plein air, 192, Avenue Charles Floquet 93155 LE BLANC MESNIL","tel":"01 49 47 48 76","lat":"48.94025222","lng":"2.44441347","isChecked":false},{"nom":"Micromania BELLE EPINE","addresse":"Centre commercial BELLE EPINE, Local 23 - Belle Epine 440 94561 THIAIS","tel":"01.46.87.30.71","lat":"48.75630774","lng":"2.37227256","isChecked":false},{"nom":"Micromania CRETEIL","addresse":"Centre commercial CRETEIL SOLEIL, CCR 428 94016 CRETEIL","tel":"01.43.77.24.11","lat":"48.78005196","lng":"2.45816922","isChecked":false},{"nom":"Micromania ANTONY","addresse":"27, Avenue de la Division Leclerc 92160 ANTONY","tel":"01.46.74.06.26","lat":"48.75185052","lng":"2.30553243","isChecked":false},{"nom":"Micromania VELIZY 2","addresse":"Centre commercial VELIZY 2 78140 VELIZY VILLACOUBLAY","tel":"01.34.65.32.91","lat":"48.77968063","lng":"2.22251850","isChecked":false},{"nom":"Micromania SANNOIS","addresse":"Centre commercial CARREFOUR, 3, Rue de Horrione 95118 SANNOIS","tel":"0139811810","lat":"48.96448856","lng":"2.25592849","isChecked":false},{"nom":"Micromania SARTROUVILLE","addresse":"Centre commercial Carrefour du Plateau, Avenue Robert SCHUMAN 78500 SARTROUVILLE","tel":"01 61 04 19 80","lat":"48.94651469","lng":"2.19735918","isChecked":false},{"nom":"Micromania PARINOR 2","addresse":"Centre Commercial Parinor, niveau 1 93606 AULNAY SOUS BOIS","tel":"01 48 65 22 18","lat":"48.95587550","lng":"2.47836110","isChecked":false},{"nom":"Micromania PARINOR","addresse":"Centre commercial PARINOR, Rez de chaussée 93606 AULNAY SOUS BOIS","tel":"01.48.65.35.39","lat":"48.95728050","lng":"2.47741481","isChecked":false},{"nom":"Micromania ARCADES","addresse":"Centre commercial LES ARCADES, Local 117 93160 NOISY LE GRAND","tel":"0143045235","lat":"48.83778896","lng":"2.54377639","isChecked":false},{"nom":"Micromania VAL DE FRANCE","addresse":"Centre commercial Auchan, Quartier de la Sous-Préfecture 95200 SARCELLES","tel":"01 39 90 00 25","lat":"48.99630639","lng":"2.37945450","isChecked":false},{"nom":"Micromania MASSY-PALAISEAU","addresse":"Centre commercial CORA MASSY, AV. DE L'EUROPE 91300 MASSY","tel":"01 69 75 12 39","lat":"48.72564810","lng":"2.27821491","isChecked":false},{"nom":"Micromania MONTESSON","addresse":"Centre commercial CARREFOUR, 280 av Gabriel Péri 78360 MONTESSON","tel":"01.61.04.19.00","lat":"48.92891068","lng":"2.14643937","isChecked":false},{"nom":"Micromania SAINT BRICE","addresse":"CENTRE COMMERCIAL CARREFOUR ST BRICE, AVENUE GARIBALDI 95350 ST BRICE SOUS FORET","tel":"0139334647","lat":"49.00939600","lng":"2.35105400","isChecked":false},{"nom":"Micromania BEAU SEVRAN","addresse":"Centre commercial BEAU SEVRAN, Rte des Petits Ponts 93270 SEVRAN","tel":"01 41 52 12 98","lat":"48.95050409","lng":"2.52932653","isChecked":false},{"nom":"Micromania PARLY 2","addresse":"Centre commercial PARLY 2, Local 128 78150 LE CHESNAY","tel":"0139234090","lat":"48.82811156","lng":"2.11694501","isChecked":false},{"nom":"Micromania ORMESSON","addresse":"Centre commercial CARREFOUR ORMESSON, 85 ROUTE DE PROVINS - RN 4 94430 CHENNEVIERES SUR MARNE","tel":"0145905974","lat":"48.79271258","lng":"2.55524113","isChecked":false},{"nom":"Micromania VAL D'OLY","addresse":"Centre commercial AUCHAN VAL D'OLY, 8 Rue Longueraie 91270 VIGNEUX SUR SEINE","tel":"01.69.52.46.29","lat":"48.71741264","lng":"2.43907514","isChecked":false},{"nom":"Micromania ATHIS-MONS","addresse":"Centre commercial CARREFOUR, 180 RN7 91200 ATHIS MONS","tel":"01.69.57.52.43","lat":"48.69831438","lng":"2.37276305","isChecked":false},{"nom":"Micromania MONTIGNY LES CORMEILLES","addresse":"Centre commercial du Pavé de Montigny 95370 MONTIGNY LES CORMEILLES","tel":"01.39.97.16.98","lat":"48.99396658","lng":"2.19940213","isChecked":false},{"nom":"Micromania VILLEBON","addresse":"Centre commercial Auchan, Chemin Briis 91140 VILLEBON SUR YVETTE","tel":"01 69 31 71 40","lat":"48.70621885","lng":"2.25455314","isChecked":false},{"nom":"Micromania TAVERNY","addresse":"CCAL LES PORTES DE TAVERNY, LOT 28 95158 TAVERNY","tel":"01 39 95 71 95","lat":"49.01426372","lng":"2.22191612","isChecked":false}]}